[
    {
        "origin": {
            "code": "ACE",
            "name": "Lanzarote",
            "latitude": "28.945499420166",
            "longitude": "-13.6051998138427"
        },
        "destination": {
            "code": "ADB",
            "name": "Adnan Menderes",
            "latitude": "28.945499420166",
            "longitude": "-13.6051998138427"
        },
        "departureDate": "04/11/2018",
        "returnDate": "08/11/2018",
        "totalPrice": 200,
        "airline": "../images/lh.png",
        "airlineCode": "LH"
    },
    {
        "origin": {
            "code": "ADB",
            "name": "İzmir",
            "latitude": "38.2924003601",
            "longitude": "27.156999588"
        },
        "destination": {
            "code": "ACE",
            "name": "Adnan Menderes",
            "latitude": "28.945499420166",
            "longitude": "-13.6051998138427"
        },
        "departureDate": "04/11/2018",
        "returnDate": "08/11/2018",
        "totalPrice": 150,
        "airline": "../images/mu.png",
        "airlineCode": "MU"
    },
    {
        "origin": {
            "code": "AGA",
            "name": "Agadir",
            "latitude": "30.3250007629394",
            "longitude": "-9.41306972503662"
        },
        "destination": {
            "code": "ACE",
            "name": "Adnan Menderes",
            "latitude": "28.945499420166",
            "longitude": "-13.6051998138427"
        },
        "departureDate": "04/11/2018",
        "returnDate": "08/11/2018",
        "totalPrice": 155,
        "airline": "../images/lh.png",
        "airlineCode": "LH"
    },
    {
        "origin": {
            "code": "AGP",
            "name": "Málaga",
            "latitude": "36.6749000549316",
            "longitude": "-4.49911022186279"
        },
        "destination": {
            "code": "AGA",
            "name": "Adnan Menderes",
            "latitude": "28.945499420166",
            "longitude": "-13.6051998138427"
        },
        "departureDate": "04/11/2018",
        "returnDate": "08/11/2018",
        "totalPrice": 169,
        "airline": "../images/mu.png",
        "airlineCode": "MU"
    },
    {
        "origin": {
            "code": "AKL",
            "name": "Auckland",
            "latitude": "-37.0080986022999",
            "longitude": "174.792007446"
        },
        "destination": {
            "code": "AGP",
            "name": "Adnan Menderes",
            "latitude": "28.945499420166",
            "longitude": "-13.6051998138427"
        },
        "departureDate": "04/11/2018",
        "returnDate": "08/11/2018",
        "totalPrice": 135,
        "airline": "../images/lh.png",
        "airlineCode": "LH"
    },
    {
        "origin": {
            "code": "ALC",
            "name": "Alicante",
            "latitude": "38.2821998596191",
            "longitude": "-0.558156013488769"
        },
        "destination": {
            "code": "ADB",
            "name": "Adnan Menderes",
            "latitude": "28.945499420166",
            "longitude": "-13.6051998138427"
        },
        "departureDate": "04/11/2018",
        "returnDate": "08/11/2018",
        "totalPrice": 123,
        "airline": "../images/mu.png",
        "airlineCode": "MU"
    },
    {
        "origin": {
            "code": "AMM",
            "name": "Amman",
            "latitude": "31.7226009369",
            "longitude": "35.9931983948"
        },
        "destination": {
            "code": "AGP",
            "name": "Adnan Menderes",
            "latitude": "28.945499420166",
            "longitude": "-13.6051998138427"
        },
        "departureDate": "04/11/2018",
        "returnDate": "08/11/2018",
        "totalPrice": 198,
        "airline": "../images/lh.png",
        "airlineCode": "LH"
    },
    {
        "origin": {
            "code": "AMS",
            "name": "Amsterdam",
            "latitude": "52.3086013794",
            "longitude": "4.76388978957999"
        },
        "destination": {
            "code": "ADB",
            "name": "Adnan Menderes",
            "latitude": "28.945499420166",
            "longitude": "-13.6051998138427"
        },
        "departureDate": "04/11/2018",
        "returnDate": "08/11/2018",
        "totalPrice": 178,
        "airline": "../images/mu.png",
        "airlineCode": "MU"
    },
    {
        "origin": {
            "code": "ANC",
            "name": "Anchorage",
            "latitude": "61.1744003295898",
            "longitude": "-149.996002197265"
        },
        "destination": {
            "code": "ADB",
            "name": "Adnan Menderes",
            "latitude": "28.945499420166",
            "longitude": "-13.6051998138427"
        },
        "departureDate": "04/11/2018",
        "returnDate": "08/11/2018",
        "totalPrice": 165,
        "airline": "../images/lh.png",
        "airlineCode": "LH"
    },
    {
        "origin": {
            "code": "ARN",
            "name": "Stockholm",
            "latitude": "59.651901245117",
            "longitude": "17.918600082397"
        },
        "destination": {
            "code": "ANC",
            "name": "Adnan Menderes",
            "latitude": "28.945499420166",
            "longitude": "-13.6051998138427"
        },
        "departureDate": "04/11/2018",
        "returnDate": "08/11/2018",
        "totalPrice": 133,
        "airline": "../images/mu.png",
        "airlineCode": "MU"
    },
    {
        "origin": {
            "code": "ATH",
            "name": "Athen",
            "latitude": "37.9364013672",
            "longitude": "23.9444999695"
        },
        "destination": {
            "code": "ADB",
            "name": "Adnan Menderes",
            "latitude": "28.945499420166",
            "longitude": "-13.6051998138427"
        },
        "departureDate": "04/11/2018",
        "returnDate": "08/11/2018",
        "totalPrice": 75,
        "airline": "../images/lh.png",
        "airlineCode": "LH"
    },
    {
        "origin": {
            "code": "AUH",
            "name": "Abu Dhabi",
            "latitude": "24.4330005645751",
            "longitude": "54.6511001586914"
        },
        "destination": {
            "code": "ATH",
            "name": "Adnan Menderes",
            "latitude": "28.945499420166",
            "longitude": "-13.6051998138427"
        },
        "departureDate": "04/11/2018",
        "returnDate": "08/11/2018",
        "totalPrice": 234,
        "airline": "../images/mu.png",
        "airlineCode": "MU"
    },
    {
        "origin": {
            "code": "AYT",
            "name": "Antalya",
            "latitude": "36.898701",
            "longitude": "30.800501"
        },
        "destination": {
            "code": "ADB",
            "name": "Adnan Menderes",
            "latitude": "28.945499420166",
            "longitude": "-13.6051998138427"
        },
        "departureDate": "04/11/2018",
        "returnDate": "08/11/2018",
        "totalPrice": 156,
        "airline": "../images/lh.png",
        "airlineCode": "LH"
    }
]